[{"id": "410", "name": "Korea, Republic", "iso3": "KOR", "iso2": "KR", "lat": 36.355168880950515, "lon": 127.79521244817212}, {"id": "276", "name": "Germany", "iso3": "DEU", "iso2": "DE", "lat": 51.10974953637073, "lon": 10.394248847716218}, {"id": "398", "name": "Kazakhstan", "iso3": "KAZ", "iso2": "KZ", "lat": 48.15737876077842, "lon": 67.25516612813645}, {"id": "528", "name": "Netherlands", "iso3": "NLD", "iso2": "NL", "lat": 52.26318239968421, "lon": 5.574516392624061}, {"id": "031", "name": "Azerbaijan", "iso3": "AZE", "iso2": "AZ", "lat": 40.287483877504144, "lon": 47.5302536029451}, {"id": "203", "name": "Czech Republic", "iso3": "CZE", "iso2": "CZ", "lat": 49.74058804972487, "lon": 15.33026616386254}, {"id": "360", "name": "Indonesia", "iso3": "IDN", "iso2": "ID", "lat": -2.2366122015267456, "lon": 117.30292756661946}, {"id": "729", "name": "Sudan", "iso3": "SDN", "iso2": "SD", "lat": 16.049385531400517, "lon": 30.005646335160435}, {"id": "380", "name": "Italy", "iso3": "ITA", "iso2": "IT", "lat": 42.789728123014, "lon": 12.078200011980403}, {"id": "250", "name": "France", "iso3": "FRA", "iso2": "FR", "lat": 46.55891592589059, "lon": 2.553552531535676}, {"id": "076", "name": "Brazil", "iso3": "BRA", "iso2": "BR", "lat": -10.743661016766678, "lon": -53.07658774078698}, {"id": "616", "name": "Poland", "iso3": "POL", "iso2": "PL", "lat": 52.129530333244226, "lon": 19.393496438582847}, {"id": "241", "name": "Other Asia, nes", "iso3": null, "iso2": null, "lat": "36.5945678032419", "lon": "105.16926929981145"}, {"id": "724", "name": "Spain", "iso3": "ESP", "iso2": "ES", "lat": 40.2268958393104, "lon": -3.647067268354703}, {"id": "170", "name": "Colombia", "iso3": "COL", "iso2": "CO", "lat": 3.902581297897851, "lon": -73.08673140355468}, {"id": "792", "name": "Turkey", "iso3": "TUR", "iso2": "TR", "lat": 39.05995291657429, "lon": 35.17630520636732}, {"id": "036", "name": "Australia", "iso3": "AUS", "iso2": "AU", "lat": -25.729094990065146, "lon": 134.49102013377023}, {"id": "156", "name": "China", "iso3": "CHN", "iso2": "CN", "lat": 36.56069890791016, "lon": 103.85793427772569}, {"id": "818", "name": "Egypt", "iso3": "EGY", "iso2": "EG", "lat": 26.569799063644123, "lon": 29.783659143268945}, {"id": "608", "name": "Philippines", "iso3": "PHL", "iso2": "PH", "lat": 11.735988119761744, "lon": 122.86575684318562}, {"id": "004", "name": "Afghanistan", "iso3": "AFG", "iso2": "AF", "lat": 33.82841535744357, "lon": 66.02958641562712}, {"id": "804", "name": "Ukraine", "iso3": "UKR", "iso2": "UA", "lat": 49.00892092611276, "lon": 31.40550893213529}, {"id": "348", "name": "Hungary", "iso3": "HUN", "iso2": "HU", "lat": 47.16732302675106, "lon": 19.414043859454956}, {"id": "643", "name": "Russian Federation", "iso3": "RUS", "iso2": "RU", "lat": 61.980729808263426, "lon": 96.72328782894158}, {"id": "012", "name": "Algeria", "iso3": "DZA", "iso2": "DZ", "lat": 28.15837386115167, "lon": 2.6771460238232074}, {"id": "860", "name": "Uzbekistan", "iso3": "UZB", "iso2": "UZ", "lat": 41.75063679337116, "lon": 63.17138303253228}, {"id": "604", "name": "Peru", "iso3": "PER", "iso2": "PE", "lat": -9.172335510470814, "lon": -74.35684186076726}, {"id": "050", "name": "Bangladesh", "iso3": "BGD", "iso2": "BD", "lat": 23.836762102548974, "lon": 90.27738401704326}, {"id": "484", "name": "Mexico", "iso3": "MEX", "iso2": "MX", "lat": 23.950533821388706, "lon": -102.5470715908513}, {"id": "368", "name": "Iraq", "iso3": "IRQ", "iso2": "IQ", "lat": 32.99986695322385, "lon": 43.754806837408516}, {"id": "392", "name": "Japan", "iso3": "JPN", "iso2": "JP", "lat": 37.53119621246836, "lon": 137.94943729812465}, {"id": "032", "name": "Argentina", "iso3": "ARG", "iso2": "AR", "lat": -35.38995999903564, "lon": -65.16699767720381}, {"id": "504", "name": "Morocco", "iso3": "MAR", "iso2": "MA", "lat": 31.846558776876677, "lon": -6.276138678565937}, {"id": "056", "name": "Belgium", "iso3": "BEL", "iso2": "BE", "lat": 50.64094344942423, "lon": 4.662170791153743}, {"id": "566", "name": "Nigeria", "iso3": "NGA", "iso2": "NG", "lat": 9.59226770073643, "lon": 8.097575007657307}, {"id": "124", "name": "Canada", "iso3": "CAN", "iso2": "CA", "lat": 61.36744035291593, "lon": -98.26930282199422}, {"id": "840", "name": "United States", "iso3": "USA", "iso2": "US", "lat": 45.67625945106871, "lon": -112.47083697898208}, {"id": "682", "name": "Saudi Arabia", "iso3": "SAU", "iso2": "SA", "lat": 24.090773661237748, "lon": 44.55597446871578}]