[{"id": "410", "name": "Korea, Republic", "lat": "55.8215537", "lon": "49.132971"}, {"id": "276", "name": "Germany", "lat": "51.31844629674556", "lon": "10.366941634850644"}, {"id": "398", "name": "Kazakhstan", "lat": "48.13141426771427", "lon": "67.12415025897748"}, {"id": "528", "name": "Netherlands", "lat": "49.43500107824476", "lon": "-0.19350579312519578"}, {"id": "031", "name": "Azerbaijan", "lat": "40.26381116427983", "lon": "47.91544947229725"}, {"id": "203", "name": "Czech Republic", "lat": "49.739088443002046", "lon": "15.331513082204879"}, {"id": "360", "name": "Indonesia", "lat": "-2.8155596127743587", "lon": "118.40498424196619"}, {"id": "729", "name": "Sudan", "lat": "16.034409688603315", "lon": "30.058204880880034"}, {"id": "380", "name": "Italy", "lat": "41.99008940569612", "lon": "12.454366740058534"}, {"id": "250", "name": "France", "lat": "20.676451981752212", "lon": "-8.708090384191602"}, {"id": "076", "name": "Brazil", "lat": "-10.828099009358356", "lon": "-52.82691725058717"}, {"id": "616", "name": "Poland", "lat": "52.20858053700312", "lon": "19.318952598028076"}, {"id": "241", "name": "Other Asia, nes", "lat": "36.5945678032419", "lon": "105.16926929981145"}, {"id": "724", "name": "Spain", "lat": "39.59394065594023", "lon": "-4.015317311735582"}, {"id": "170", "name": "Colombia", "lat": "4.3068483766538375", "lon": "-73.3939534049728"}, {"id": "792", "name": "Turkey", "lat": "39.10027839059715", "lon": "34.87488735265415"}, {"id": "036", "name": "Australia", "lat": "-25.58185785744964", "lon": "134.71737406108042"}, {"id": "156", "name": "China", "lat": "36.2964962052245", "lon": "104.34502109647721"}, {"id": "818", "name": "Egypt", "lat": "26.579316791035023", "lon": "30.087058878026898"}, {"id": "608", "name": "Philippines", "lat": "10.852300508523932", "lon": "121.92448538534934"}, {"id": "004", "name": "Afghanistan", "lat": "33.83124929898248", "lon": "66.02742559775228"}, {"id": "804", "name": "Ukraine", "lat": "48.81343243011003", "lon": "31.542100655910225"}, {"id": "348", "name": "Hungary", "lat": "47.16527978269687", "lon": "19.412147771506852"}, {"id": "643", "name": "Russian Federation", "lat": "62.66690527427979", "lon": "96.06390756782609"}, {"id": "012", "name": "Algeria", "lat": "28.26441177082379", "lon": "2.6819273654310325"}, {"id": "860", "name": "Uzbekistan", "lat": "41.76834258898824", "lon": "63.12578077216723"}, {"id": "604", "name": "Peru", "lat": "-10.274100350345105", "lon": "-76.15495530453813"}, {"id": "050", "name": "Bangladesh", "lat": "23.49999301661322", "lon": "90.38563879781822"}, {"id": "484", "name": "Mexico", "lat": "23.959001295137885", "lon": "-102.90779514602713"}, {"id": "368", "name": "Iraq", "lat": "33.0272831958363", "lon": "43.7989723346568"}, {"id": "392", "name": "Japan", "lat": "36.159380974877116", "lon": "136.74312092735101"}, {"id": "032", "name": "Argentina", "lat": "-35.91609509774027", "lon": "-65.10409204649655"}, {"id": "504", "name": "Morocco", "lat": "29.764086591468864", "lon": "-8.635315396966252"}, {"id": "056", "name": "Belgium", "lat": "50.672458621427104", "lon": "4.578861322412145"}, {"id": "566", "name": "Nigeria", "lat": "9.502362357478113", "lon": "8.051058647116376"}, {"id": "124", "name": "Canada", "lat": "62.82546944225453", "lon": "-96.10370843103264"}, {"id": "840", "name": "United States", "lat": "45.94864833861711", "lon": "-113.2385102321674"}, {"id": "682", "name": "Saudi Arabia", "lat": "24.015908059938646", "lon": "44.34909683432846"}]