[{"id": "410", "name": "Korea, Republic", "iso": "KOR", "lat": 36.355168880950515, "lon": 127.79521244817212}, {"id": "276", "name": "Germany", "iso": "DEU", "lat": 51.10974953637073, "lon": 10.394248847716218}, {"id": "398", "name": "Kazakhstan", "iso": "KAZ", "lat": 48.15737876077842, "lon": 67.25516612813645}, {"id": "528", "name": "Netherlands", "iso": "NLD", "lat": 52.26318239968421, "lon": 5.574516392624061}, {"id": "031", "name": "Azerbaijan", "iso": "AZE", "lat": 40.287483877504144, "lon": 47.5302536029451}, {"id": "203", "name": "Czech Republic", "iso": "CZE", "lat": 49.74058804972487, "lon": 15.33026616386254}, {"id": "360", "name": "Indonesia", "iso": "IDN", "lat": -2.2366122015267456, "lon": 117.30292756661946}, {"id": "729", "name": "Sudan", "iso": "SDN", "lat": 16.049385531400517, "lon": 30.005646335160435}, {"id": "380", "name": "Italy", "iso": "ITA", "lat": 42.789728123014, "lon": 12.078200011980403}, {"id": "250", "name": "France", "iso": "FRA", "lat": 46.55891592589059, "lon": 2.553552531535676}, {"id": "076", "name": "Brazil", "iso": "BRA", "lat": -10.743661016766678, "lon": -53.07658774078698}, {"id": "616", "name": "Poland", "iso": "POL", "lat": 52.129530333244226, "lon": 19.393496438582847}, {"id": "241", "name": "Other Asia, nes", "iso": null, "lat": "36.5945678032419", "lon": "105.16926929981145"}, {"id": "724", "name": "Spain", "iso": "ESP", "lat": 40.2268958393104, "lon": -3.647067268354703}, {"id": "170", "name": "Colombia", "iso": "COL", "lat": 3.902581297897851, "lon": -73.08673140355468}, {"id": "792", "name": "Turkey", "iso": "TUR", "lat": 39.05995291657429, "lon": 35.17630520636732}, {"id": "036", "name": "Australia", "iso": "AUS", "lat": -25.729094990065146, "lon": 134.49102013377023}, {"id": "156", "name": "China", "iso": "CHN", "lat": 36.56069890791016, "lon": 103.85793427772569}, {"id": "818", "name": "Egypt", "iso": "EGY", "lat": 26.569799063644123, "lon": 29.783659143268945}, {"id": "608", "name": "Philippines", "iso": "PHL", "lat": 11.735988119761744, "lon": 122.86575684318562}, {"id": "004", "name": "Afghanistan", "iso": "AFG", "lat": 33.82841535744357, "lon": 66.02958641562712}, {"id": "804", "name": "Ukraine", "iso": "UKR", "lat": 49.00892092611276, "lon": 31.40550893213529}, {"id": "348", "name": "Hungary", "iso": "HUN", "lat": 47.16732302675106, "lon": 19.414043859454956}, {"id": "643", "name": "Russian Federation", "iso": "RUS", "lat": 61.980729808263426, "lon": 96.72328782894158}, {"id": "012", "name": "Algeria", "iso": "DZA", "lat": 28.15837386115167, "lon": 2.6771460238232074}, {"id": "860", "name": "Uzbekistan", "iso": "UZB", "lat": 41.75063679337116, "lon": 63.17138303253228}, {"id": "604", "name": "Peru", "iso": "PER", "lat": -9.172335510470814, "lon": -74.35684186076726}, {"id": "050", "name": "Bangladesh", "iso": "BGD", "lat": 23.836762102548974, "lon": 90.27738401704326}, {"id": "484", "name": "Mexico", "iso": "MEX", "lat": 23.950533821388706, "lon": -102.5470715908513}, {"id": "368", "name": "Iraq", "iso": "IRQ", "lat": 32.99986695322385, "lon": 43.754806837408516}, {"id": "392", "name": "Japan", "iso": "JPN", "lat": 37.53119621246836, "lon": 137.94943729812465}, {"id": "032", "name": "Argentina", "iso": "ARG", "lat": -35.38995999903564, "lon": -65.16699767720381}, {"id": "504", "name": "Morocco", "iso": "MAR", "lat": 31.846558776876677, "lon": -6.276138678565937}, {"id": "056", "name": "Belgium", "iso": "BEL", "lat": 50.64094344942423, "lon": 4.662170791153743}, {"id": "566", "name": "Nigeria", "iso": "NGA", "lat": 9.59226770073643, "lon": 8.097575007657307}, {"id": "124", "name": "Canada", "iso": "CAN", "lat": 61.36744035291593, "lon": -98.26930282199422}, {"id": "840", "name": "United States", "iso": "USA", "lat": 45.67625945106871, "lon": -112.47083697898208}, {"id": "682", "name": "Saudi Arabia", "iso": "SAU", "lat": 24.090773661237748, "lon": 44.55597446871578}]